{
"type": "FeatureCollection",
"crs": { "type": "Name", "properties": { "Name": "urn:ogc:def:crs:OGC:1.3:CRS84" } },
"features": [
{ "type": "Feature", "properties": { "Name": "Ash Cave Falls", "description": "http:\/\/www.naturalohioadventures.com\/ash-cave-falls.html" }, "geometry": { "type": "Point", "coordinates": [ -82.5457764, 39.3967726, 0.0 ] } },
{ "type": "Feature", "properties": { "Name": "Mount Pleasant Overlook", "description": "http:\/\/www.naturalohioadventures.com\/mount-pleasant-overlook.html" }, "geometry": { "type": "Point", "coordinates": [ -82.5944102, 39.7248725, 0.0 ] } },
{ "type": "Feature", "properties": { "Name": "Old Man's Cave", "description": "http:\/\/www.naturalohioadventures.com\/old-mans-cave.html" }, "geometry": { "type": "Point", "coordinates": [ -82.5416565, 39.4346683, 0.0 ] } },
{ "type": "Feature", "properties": { "Name": "Rising Park", "description": "http:\/\/www.naturalohioadventures.com\/rising-park-ohio.html" }, "geometry": { "type": "Point", "coordinates": [ -82.5929296, 39.7257307, 0.0 ] } },
{ "type": "Feature", "properties": { "Name": "Rock Mill Falls", "description": "http:\/\/www.naturalohioadventures.com\/rock-mill-waterfall.html" }, "geometry": { "type": "Point", "coordinates": [ -82.7135485, 39.7490542, 0.0 ] } },
{ "type": "Feature", "properties": { "Name": "Rockbridge Falls", "description": "http:\/\/www.naturalohioadventures.com\/rockbridge-falls.html" }, "geometry": { "type": "Point", "coordinates": [ -82.4993312, 39.5663472, 0.0 ] } },
{ "type": "Feature", "properties": { "Name": "Rockbridge State Nature Preserve", "description": "http:\/\/www.naturalohioadventures.com\/rockbridge-nature-preserve.html" }, "geometry": { "type": "Point", "coordinates": [ -82.4995995, 39.566248, 0.0 ] } },
{ "type": "Feature", "properties": { "Name": "Rose Lake Falls", "description": "http:\/\/www.naturalohioadventures.com\/rose-hollow-falls.html" }, "geometry": { "type": "Point", "coordinates": [ -82.5386524, 39.423862, 0.0 ] } },
{ "type": "Feature", "properties": { "Name": "Shawnee State Forest", "description": "http:\/\/www.naturalohioadventures.com\/shawnee-state-forest.html" }, "geometry": { "type": "Point", "coordinates": [ -83.0915093, 38.7043883, 0.0 ] } },
{ "type": "Feature", "properties": { "Name": "Upper Old Man's Cave Falls", "description": "http:\/\/www.naturalohioadventures.com\/upper-old-mans-cave-falls.html" }, "geometry": { "type": "Point", "coordinates": [ -82.5387812, 39.436541, 0.0 ] } },
{ "type": "Feature", "properties": { "Name": "Lower Old Mans Cave Falls", "description": "http:\/\/www.naturalohioadventures.com\/lower-old-mans.html" }, "geometry": { "type": "Point", "coordinates": [ -82.5435019, 39.432895, 0.0 ] } },
{ "type": "Feature", "properties": { "Name": "Broken Rock Falls", "description": "http:\/\/www.naturalohioadventures.com\/broken-rock-falls.html" }, "geometry": { "type": "Point", "coordinates": [ -82.5466347, 39.4333093, 0.0 ] } },
{ "type": "Feature", "properties": { "Name": "Buzzards Roost Nature Preserve", "description": "http:\/\/www.naturalohioadventures.com\/buzzard-roost-nature-preserve.html" }, "geometry": { "type": "Point", "coordinates": [ -83.0706739, 39.3254674, 0.0 ] } },
{ "type": "Feature", "properties": { "Name": "Strouds Run State Park", "description": "http:\/\/www.naturalohioadventures.com\/strouds-run-state-park.html" }, "geometry": { "type": "Point", "coordinates": [ -82.0506406, 39.3660936, 0.0 ] } },
{ "type": "Feature", "properties": { "Name": "Cantwell Cliffs", "description": "http:\/\/www.naturalohioadventures.com\/cantwell-cliffs-.html" }, "geometry": { "type": "Point", "coordinates": [ -82.5768256, 39.5394456, 0.0 ] } },
{ "type": "Feature", "properties": { "Name": "Cantwell Cliff Falls", "description": "http:\/\/www.naturalohioadventures.com\/cantwell-cliffs-falls.html" }, "geometry": { "type": "Point", "coordinates": [ -82.5777912, 39.5402399, 0.0 ] } },
{ "type": "Feature", "properties": { "Name": "Walnut Woods Metro Park", "description": "http:\/\/www.naturalohioadventures.com\/walnut-woods.html" }, "geometry": { "type": "Point", "coordinates": [ -82.8668261, 39.8416929, 0.0 ] } },
{ "type": "Feature", "properties": { "Name": "Wayne National Forest - Athens", "description": "http:\/\/www.naturalohioadventures.com\/wayne-national-forest-athens.html" }, "geometry": { "type": "Point", "coordinates": [ -82.1673542, 39.4029532, 0.0 ] } },
{ "type": "Feature", "properties": { "Name": "Wayne National Forest - Ironton", "description": "http:\/\/www.naturalohioadventures.com\/wayne-national-forest-ironton.html" }, "geometry": { "type": "Point", "coordinates": [ -82.4971157, 38.6875741, 0.0 ] } },
{ "type": "Feature", "properties": { "Name": "Wayne National Forest - Marietta", "description": "http:\/\/www.naturalohioadventures.com\/wayne-national-forest-marietta-.html" }, "geometry": { "type": "Point", "coordinates": [ -81.0118103, 39.5681171, 0.0 ] } },
{ "type": "Feature", "properties": { "Name": "Whisper Falls", "description": "http:\/\/www.naturalohioadventures.com\/whispering-falls.html" }, "geometry": { "type": "Point", "coordinates": [ -82.5333524, 39.4200496, 0.0 ] } },
{ "type": "Feature", "properties": { "Name": "Hidden Falls", "description": "http:\/\/www.naturalohioadventures.com\/hidden-falls.html" }, "geometry": { "type": "Point", "coordinates": [ -82.5255847, 39.4181681, 0.0 ] } },
{ "type": "Feature", "properties": { "Name": "Chapel Cave Trailhead", "description": "http:\/\/www.naturalohioadventures.com\/chapel-cave-hocking-hills.html" }, "geometry": { "type": "Point", "coordinates": [ -82.5585437, 39.458761, 0.0 ] } },
{ "type": "Feature", "properties": { "Name": "Big Spring Hollow Falls", "description": "http:\/\/www.naturalohioadventures.com\/big-spring-hollow-falls.html" }, "geometry": { "type": "Point", "coordinates": [ -82.5628567, 39.4552321, 0.0 ] } },
{ "type": "Feature", "properties": { "Name": "Airplane Rock Trailhead", "description": "http:\/\/www.naturalohioadventures.com\/airplane-rock-.html" }, "geometry": { "type": "Point", "coordinates": [ -82.5665152, 39.4559529, 0.0 ] } },
{ "type": "Feature", "properties": { "Name": "Highlands Nature Sanctuary", "description": "http:\/\/www.naturalohioadventures.com\/highlands-nature-sanctuary.html" }, "geometry": { "type": "Point", "coordinates": [ -83.3578312, 39.2231817, 0.0 ] } },
{ "type": "Feature", "properties": { "Name": "Balanced Rock Trailhead", "description": "http:\/\/www.naturalohioadventures.com\/balanced-rock.html" }, "geometry": { "type": "Point", "coordinates": [ -82.5580931, 39.4589764, 0.0 ] } },
{ "type": "Feature", "properties": { "Name": "Cedar Falls", "description": "http:\/\/www.naturalohioadventures.com\/cedar-falls.htmlÂ " }, "geometry": { "type": "Point", "coordinates": [ -82.524941, 39.4187151, 0.0 ] } },
{ "type": "Feature", "properties": { "Name": "Hocking State Forest", "description": "http:\/\/www.naturalohioadventures.com\/hocking-hills-state-forest.html" }, "geometry": { "type": "Point", "coordinates": [ -82.5460768, 39.4386623, 0.0 ] } },
{ "type": "Feature", "properties": { "Name": "Conkles Hollow State Nature Preserve", "description": "http:\/\/www.naturalohioadventures.com\/conkles-hollow-nature-preserve.html" }, "geometry": { "type": "Point", "coordinates": [ -82.5750446, 39.4561434, 0.0 ] } },
{ "type": "Feature", "properties": { "Name": "Little Rocky Hollow Nature Preserve", "description": "http:\/\/www.naturalohioadventures.com\/little-rocky-hollow-nature-preserve.html" }, "geometry": { "type": "Point", "coordinates": [ -82.5361848, 39.469976, 0.0 ] } },
{ "type": "Feature", "properties": { "Name": "Hocking Hills State Park", "description": "http:\/\/www.naturalohioadventures.com\/hocking-hills-state-park.html" }, "geometry": { "type": "Point", "coordinates": [ -82.5359917, 39.4265472, 0.0 ] } },
{ "type": "Feature", "properties": { "Name": "Rock Stalls", "description": "http:\/\/www.naturalohioadventures.com\/rock-stalls.html" }, "geometry": { "type": "Point", "coordinates": [ -82.468518, 39.6229, 0.0 ] } },
{ "type": "Feature", "properties": { "Name": "Chestnut Ridge Metro Park", "description": "http:\/\/www.naturalohioadventures.com\/chestnut-ridge.html" }, "geometry": { "type": "Point", "coordinates": [ -82.7538621, 39.8086308, 0.0 ] } },
{ "type": "Feature", "properties": { "Name": "Christmas Rocks State Nature Preserve", "description": "http:\/\/www.naturalohioadventures.com\/christmas-rocks-state-nature-preserve.html" }, "geometry": { "type": "Point", "coordinates": [ -82.6501358, 39.6402522, 0.0 ] } },
{ "type": "Feature", "properties": { "Name": "Clear Creek Metro Park", "description": "http:\/\/www.naturalohioadventures.com\/clear-creek.html" }, "geometry": { "type": "Point", "coordinates": [ -82.5557166, 39.5974671, 0.0 ] } },
{ "type": "Feature", "properties": { "Name": "Jacob's Ladder Overlook", "description": "http:\/\/www.naturalohioadventures.com\/jacob-s-ladder-overlook.html" }, "geometry": { "type": "Point", "coordinates": [ -82.6503825, 39.6411734, 0.0 ] } },
{ "type": "Feature", "properties": { "Name": "Lake Hope State Park", "description": "http:\/\/www.naturalohioadventures.com\/lake-hope-state-park.html" }, "geometry": { "type": "Point", "coordinates": [ -82.356289, 39.2337698, 0.0 ] } },
{ "type": "Feature", "properties": { "Name": "Lake Katharine State Nature Preserve", "description": "http:\/\/www.naturalohioadventures.com\/lake-katharine-nature-preserve.html" }, "geometry": { "type": "Point", "coordinates": [ -82.6777142, 39.08129, 0.0 ] } },
{ "type": "Feature", "properties": { "Name": "Conkles Hollow Falls", "description": "http:\/\/www.naturalohioadventures.com\/conkles-hollow-falls.html" }, "geometry": { "type": "Point", "coordinates": [ -82.5761819, 39.457767, 0.0 ] } },
{ "type": "Feature", "properties": { "Name": "Lake Katharine\/Rock Run Falls", "description": "http:\/\/www.naturalohioadventures.com\/rock-run.html" }, "geometry": { "type": "Point", "coordinates": [ -82.6774514, 39.0813442, 0.0 ] } },
{ "type": "Feature", "properties": { "Name": "Corkscrew Falls", "description": "http:\/\/www.naturalohioadventures.com\/corkscrew-falls.html" }, "geometry": { "type": "Point", "coordinates": [ -82.4326086, 39.6335143, 0.0 ] } },
{ "type": "Feature", "properties": { "Name": "Red Rock Hollow Waterfalls", "description": "http:\/\/www.naturalohioadventures.com\/red-rock-hollow.html" }, "geometry": { "type": "Point", "coordinates": [ -82.5619125, 39.431652, 0.0 ] } },
{ "type": "Feature", "properties": { "Name": "Parish Rocks Falls", "description": "http:\/\/www.naturalohioadventures.com\/parish-rock-falls.html" }, "geometry": { "type": "Point", "coordinates": [ -82.5557327, 39.4215414, 0.0 ] } },
{ "type": "Feature", "properties": { "Name": "Fallsville Falls", "description": "http:\/\/www.naturalohioadventures.com\/fallsville-falls.html" }, "geometry": { "type": "Point", "coordinates": [ -83.6334872, 39.2937068, 0.0 ] } }
]
}
